name,area_type,city,district,lng,lat,typical_rent_1br,typical_rent_2br,metro_lines,tags,description,is_demo
张江高科周边,metro_station,上海,浦东,121.598,31.207,5800,8500,"[""2号线""]","[""科技园"",""通勤便利""]",靠近张江办公区，适合优先核验张江及广兰路周边真实房源,true
漕河泾开发区周边,metro_station,上海,徐汇,121.408,31.176,5600,8200,"[""9号线""]","[""产业园"",""办公""]",适合漕河泾通勤人群继续找房,true
中山公园周边,metro_station,上海,长宁,121.424,31.224,6500,9800,"[""2号线"",""3号线"",""4号线""]","[""换乘"",""生活便利""]",换乘便利但预算压力相对更高,true
莘庄周边,metro_station,上海,闵行,121.385,31.111,5200,7600,"[""1号线"",""5号线""]","[""预算友好"",""换乘""]",预算相对友好，可关注通勤时间,true
七宝周边,business_area,上海,闵行,121.349,31.157,5400,7800,"[""9号线""]","[""生活配套"",""西南片区""]",生活配套成熟，适合西南片区通勤,true
静安寺周边,metro_station,上海,静安,121.445,31.224,7200,11000,"[""2号线"",""7号线""]","[""核心区"",""预算压力高""]",核心区便利但租金更高,true

